data_coordinate_id = [
  { "city": "Jakarta", "lat": "-6.2146", "lng": "106.8451", "country": "Indonesia", "iso2": "ID", "province": "Jakarta", "population": "34540000", "population_proper": "10154134" },
  { "city": "Surabaya", "lat": "-7.2458", "lng": "112.7378", "country": "Indonesia", "iso2": "ID", "province": "Jawa Timur", "population": "4975000", "population_proper": "4975000" },
  { "city": "Bandung", "lat": "-6.9500", "lng": "107.5667", "country": "Indonesia", "iso2": "ID", "province": "Jawa Barat", "population": "2394873", "population_proper": "2394873" },
  { "city": "Bekasi", "lat": "-6.2333", "lng": "107.0000", "country": "Indonesia", "iso2": "ID", "province": "Jawa Barat", "population": "2381053", "population_proper": "2381053" },
  { "city": "Tangerang", "lat": "-6.1783", "lng": "106.6319", "country": "Indonesia", "iso2": "ID", "province": "Jawa Barat", "population": "2237006", "population_proper": "2237006" },
  { "city": "Medan", "lat": "3.6667", "lng": "98.6667", "country": "Indonesia", "iso2": "ID", "province": "Sumatera Utara", "population": "2210625", "population_proper": "2210625" },
  { "city": "Makassar", "lat": "-5.1331", "lng": "119.4136", "country": "Indonesia", "iso2": "ID", "province": "Sulawesi Selatan", "population": "1651146", "population_proper": "1651146" },
  { "city": "Depok", "lat": "-6.3940", "lng": "106.8225", "country": "Indonesia", "iso2": "ID", "province": "Jawa Barat", "population": "1631951", "population_proper": "1631951" },
  { "city": "Semarang", "lat": "-6.9667", "lng": "110.4167", "country": "Indonesia", "iso2": "ID", "province": "Jawa Tengah", "population": "1621384", "population_proper": "1621384" },
  { "city": "Palembang", "lat": "-2.9833", "lng": "104.7644", "country": "Indonesia", "iso2": "ID", "province": "Sumatera Selatan", "population": "1452456", "population_proper": "1452456" },
  { "city": "Cilacap", "lat": "-7.7167", "lng": "109.0170", "country": "Indonesia", "iso2": "ID", "province": "Jawa Tengah", "population": "1174964", "population_proper": "1174964" },
  { "city": "Bandar Lampung", "lat": "-5.4294", "lng": "105.2625", "country": "Indonesia", "iso2": "ID", "province": "Lampung", "population": "1166761", "population_proper": "1166761" },
  { "city": "Bogor", "lat": "-6.6000", "lng": "106.8000", "country": "Indonesia", "iso2": "ID", "province": "Jawa Barat", "population": "1030720", "population_proper": "1030720" },
  { "city": "Patam", "lat": "1.0678", "lng": "104.0167", "country": "Indonesia", "iso2": "ID", "province": "Kepulauan Riau", "population": "1029808", "population_proper": "1029808" },
  { "city": "Padang", "lat": "-0.9556", "lng": "100.3606", "country": "Indonesia", "iso2": "ID", "province": "Sumatera Barat", "population": "914970", "population_proper": "914970" },
  { "city": "Pekanbaru", "lat": "0.5333", "lng": "101.4500", "country": "Indonesia", "iso2": "ID", "province": "Riau", "population": "855221", "population_proper": "855221" },
  { "city": "Denpasar", "lat": "-8.6667", "lng": "115.2167", "country": "Indonesia", "iso2": "ID", "province": "Bali", "population": "834881", "population_proper": "834881" },
  { "city": "Malang", "lat": "-7.9800", "lng": "112.6200", "country": "Indonesia", "iso2": "ID", "province": "Jawa Timur", "population": "780000", "population_proper": "780000" },
  { "city": "Samarinda", "lat": "-0.5022", "lng": "117.1536", "country": "Indonesia", "iso2": "ID", "province": "Kalimantan Timur", "population": "753370", "population_proper": "753370" },
  { "city": "Banjarmasin", "lat": "-3.3333", "lng": "114.5833", "country": "Indonesia", "iso2": "ID", "province": "Kalimantan Selatan", "population": "692793", "population_proper": "692793" },
  { "city": "Tasikmalaya", "lat": "-7.3333", "lng": "108.2000", "country": "Indonesia", "iso2": "ID", "province": "Jawa Barat", "population": "678027", "population_proper": "678027" },
  { "city": "Pontianak", "lat": "-0.0206", "lng": "109.3414", "country": "Indonesia", "iso2": "ID", "province": "Kalimantan Barat", "population": "618388", "population_proper": "618388" },
  { "city": "Serang", "lat": "-6.1200", "lng": "106.1503", "country": "Indonesia", "iso2": "ID", "province": "Banten", "population": "613356", "population_proper": "613356" },
  { "city": "Jambi", "lat": "-1.5900", "lng": "103.6100", "country": "Indonesia", "iso2": "ID", "province": "Jambi", "population": "602187", "population_proper": "602187" },
  { "city": "Balikpapan", "lat": "-1.1489", "lng": "116.9031", "country": "Indonesia", "iso2": "ID", "province": "Kalimantan Timur", "population": "598043", "population_proper": "598043" },
  { "city": "Cimahi", "lat": "-6.8833", "lng": "107.5333", "country": "Indonesia", "iso2": "ID", "province": "Jawa Barat", "population": "586580", "population_proper": "586580" },
  { "city": "Surakarta", "lat": "-7.5667", "lng": "110.8167", "country": "Indonesia", "iso2": "ID", "province": "Jawa Tengah", "population": "552118", "population_proper": "552118" },
  { "city": "Manado", "lat": "1.4931", "lng": "124.8413", "country": "Indonesia", "iso2": "ID", "province": "Sulawesi Utara", "population": "461636", "population_proper": "461636" },
  { "city": "Kupang", "lat": "-10.1633", "lng": "123.5778", "country": "Indonesia", "iso2": "ID", "province": "Nusa Tenggara Timur", "population": "433970", "population_proper": "433970" },
  { "city": "Yogyakarta", "lat": "-7.8014", "lng": "110.3644", "country": "Indonesia", "iso2": "ID", "province": "Yogyakarta", "population": "422732", "population_proper": "422732" },
  { "city": "Jayapura", "lat": "-2.5333", "lng": "140.7167", "country": "Indonesia", "iso2": "ID", "province": "Papua", "population": "413283", "population_proper": "413283" },
  { "city": "Mataram", "lat": "-8.5833", "lng": "116.1167", "country": "Indonesia", "iso2": "ID", "province": "Nusa Tenggara Barat", "population": "408900", "population_proper": "408900" },
  { "city": "Cilegon", "lat": "-6.0027", "lng": "106.0112", "country": "Indonesia", "iso2": "ID", "province": "Banten", "population": "387543", "population_proper": "387543" },
  { "city": "Ambon", "lat": "-3.7050", "lng": "128.1700", "country": "Indonesia", "iso2": "ID", "province": "Maluku", "population": "372249", "population_proper": "372249" },
  { "city": "Bengkulu", "lat": "-3.7956", "lng": "102.2592", "country": "Indonesia", "iso2": "ID", "province": "Bengkulu", "population": "360495", "population_proper": "360495" },
  { "city": "Palu", "lat": "-0.8950", "lng": "119.8594", "country": "Indonesia", "iso2": "ID", "province": "Sulawesi Tengah", "population": "359350", "population_proper": "359350" },
  { "city": "Kendari", "lat": "-3.9675", "lng": "122.5947", "country": "Indonesia", "iso2": "ID", "province": "Sulawesi Tenggara", "population": "331013", "population_proper": "331013" },
  { "city": "Sukabumi", "lat": "-6.9197", "lng": "106.9272", "country": "Indonesia", "iso2": "ID", "province": "Jawa Barat", "population": "320970", "population_proper": "320970" },
  { "city": "Seren", "lat": "-7.1571", "lng": "111.5378", "country": "Indonesia", "iso2": "ID", "province": "Jawa Tengah", "population": "", "population_proper": "" },
  { "city": "Jetis", "lat": "-7.2144", "lng": "111.5179", "country": "Indonesia", "iso2": "ID", "province": "Jawa Tengah", "population": "", "population_proper": "" },
  { "city": "Jetis", "lat": "-6.9764", "lng": "111.4102", "country": "Indonesia", "iso2": "ID", "province": "Jawa Tengah", "population": "", "population_proper": "" },
  { "city": "Suruhan", "lat": "-7.0046", "lng": "111.5157", "country": "Indonesia", "iso2": "ID", "province": "Jawa Tengah", "population": "", "population_proper": "" },
  { "city": "Tambaksari Satu", "lat": "-6.9340", "lng": "111.4309", "country": "Indonesia", "iso2": "ID", "province": "Jawa Tengah", "population": "", "population_proper": "" },
  { "city": "Klopoduwur", "lat": "-7.0273", "lng": "111.4090", "country": "Indonesia", "iso2": "ID", "province": "Jawa Tengah", "population": "", "population_proper": "" },
  { "city": "Kunden", "lat": "-6.9627", "lng": "111.4117", "country": "Indonesia", "iso2": "ID", "province": "Jawa Tengah", "population": "", "population_proper": "" },
  { "city": "Kedungjenar", "lat": "-6.9758", "lng": "111.4210", "country": "Indonesia", "iso2": "ID", "province": "Jawa Tengah", "population": "", "population_proper": "" },
  { "city": "Sarirejo", "lat": "-6.9327", "lng": "111.4810", "country": "Indonesia", "iso2": "ID", "province": "Jawa Tengah", "population": "", "population_proper": "" },
  { "city": "Sambirejo", "lat": "-7.0455", "lng": "111.3391", "country": "Indonesia", "iso2": "ID", "province": "Jawa Tengah", "population": "", "population_proper": "" },
  { "city": "Sembung", "lat": "-6.9699", "lng": "111.3694", "country": "Indonesia", "iso2": "ID", "province": "Jawa Tengah", "population": "", "population_proper": "" },
  { "city": "Nlorong", "lat": "-7.0009", "lng": "111.4625", "country": "Indonesia", "iso2": "ID", "province": "Jawa Tengah", "population": "", "population_proper": "" },
  { "city": "Tambakkromo", "lat": "-7.1571", "lng": "111.5702", "country": "Indonesia", "iso2": "ID", "province": "Jawa Tengah", "population": "", "population_proper": "" },
  { "city": "Gapuk", "lat": "-7.0328", "lng": "111.3335", "country": "Indonesia", "iso2": "ID", "province": "Jawa Tengah", "population": "", "population_proper": "" },
  { "city": "Jatiklampok", "lat": "-7.0907", "lng": "111.3964", "country": "Indonesia", "iso2": "ID", "province": "Jawa Tengah", "population": "", "population_proper": "" },
  { "city": "Klagen", "lat": "-7.2125", "lng": "111.5293", "country": "Indonesia", "iso2": "ID", "province": "Jawa Tengah", "population": "", "population_proper": "" },
  { "city": "Ngraho", "lat": "-7.1707", "lng": "111.4972", "country": "Indonesia", "iso2": "ID", "province": "Jawa Tengah", "population": "", "population_proper": "" },
  { "city": "Balangpule", "lat": "-7.1724", "lng": "111.5010", "country": "Indonesia", "iso2": "ID", "province": "Jawa Tengah", "population": "", "population_proper": "" },
  { "city": "Kemiren", "lat": "-6.8988", "lng": "111.4685", "country": "Indonesia", "iso2": "ID", "province": "Jawa Tengah", "population": "", "population_proper": "" },
  { "city": "Karangnongko", "lat": "-6.9871", "lng": "111.3970", "country": "Indonesia", "iso2": "ID", "province": "Jawa Tengah", "population": "", "population_proper": "" },
  { "city": "Bogorejo", "lat": "-6.9404", "lng": "111.5186", "country": "Indonesia", "iso2": "ID", "province": "Jawa Tengah", "population": "", "population_proper": "" },
  { "city": "Bogorejo", "lat": "-6.9382", "lng": "111.3276", "country": "Indonesia", "iso2": "ID", "province": "Jawa Tengah", "population": "", "population_proper": "" },
  { "city": "Japah", "lat": "-6.9423", "lng": "111.2903", "country": "Indonesia", "iso2": "ID", "province": "Jawa Tengah", "population": "", "population_proper": "" },
  { "city": "Sukorejo", "lat": "-7.9603", "lng": "114.0015", "country": "Indonesia", "iso2": "ID", "province": "Jawa Timur", "population": "", "population_proper": "" },
  { "city": "Maesan", "lat": "-8.0233", "lng": "113.7779", "country": "Indonesia", "iso2": "ID", "province": "Jawa Timur", "population": "", "population_proper": "" },
  { "city": "Tlogosari", "lat": "-7.9993", "lng": "113.9353", "country": "Indonesia", "iso2": "ID", "province": "Jawa Timur", "population": "", "population_proper": "" },
  { "city": "Kalianyar Selatan", "lat": "-8.0152", "lng": "113.8291", "country": "Indonesia", "iso2": "ID", "province": "Jawa Timur", "population": "", "population_proper": "" },
  { "city": "Kidulsawah", "lat": "-8.0205", "lng": "113.8262", "country": "Indonesia", "iso2": "ID", "province": "Jawa Timur", "population": "", "population_proper": "" },
  { "city": "Sumur", "lat": "-8.0300", "lng": "113.8172", "country": "Indonesia", "iso2": "ID", "province": "Jawa Timur", "population": "", "population_proper": "" },
  { "city": "Krajan Bandilan", "lat": "-7.7954", "lng": "114.0117", "country": "Indonesia", "iso2": "ID", "province": "Jawa Timur", "population": "", "population_proper": "" },
  { "city": "Natar", "lat": "-5.3090", "lng": "105.1925", "country": "Indonesia", "iso2": "ID", "province": "Lampung", "population": "", "population_proper": "" },
  { "city": "Kalianda", "lat": "-5.7381", "lng": "105.5916", "country": "Indonesia", "iso2": "ID", "province": "Lampung", "population": "", "population_proper": "" },
  { "city": "Sidorejo", "lat": "-5.5847", "lng": "105.5236", "country": "Indonesia", "iso2": "ID", "province": "Lampung", "population": "", "population_proper": "" },
  { "city": "Banjar Kawan", "lat": "-8.4641", "lng": "115.3807", "country": "Indonesia", "iso2": "ID", "province": "Bali", "population": "", "population_proper": "" },
  { "city": "Wonosari", "lat": "-7.9656", "lng": "110.6036", "country": "Indonesia", "iso2": "ID", "province": "Yogyakarta", "population": "", "population_proper": "" },
 { "city": "Panolan", "lat": "-7.2246", "lng": "111.5334", "country": "Indonesia", "iso2": "ID", "province": "Jawa Tengah", "population": "", "population_proper": "" }
]
 
